[{"name": "Atlanta Music Festival", "location": "Atlanta, GA", "address": "123 Music St, Atlanta, GA", "paid": true, "cost": 50, "category": "Music", "venue": "Centennial Olympic Park", "time": "2024-05-20 18:00", "capacity": 5000, "image": "music_festival.jpg"}, {"name": "Food Truck Rally", "location": "Atlanta, GA", "address": "456 Food St, Atlanta, GA", "paid": false, "cost": 0, "category": "Food", "venue": "Piedmont Park", "time": "2024-06-15 12:00", "capacity": 2000, "image": "food_truck_rally.jpeg"}, {"name": "Art Walk", "location": "Atlanta, GA", "address": "789 Art St, Atlanta, GA", "paid": true, "cost": 20, "category": "Art", "venue": "High Museum of Art", "time": "2024-07-10 17:00", "capacity": 3000, "image": "art_walk.jpeg"}, {"name": "Music Atlanta Rave", "location": "Amphitheatre", "address": "75 Piedmont Ave NE", "paid": true, "cost": 50.0, "category": "Music", "venue": "Amphitheatre", "time": "2024-10-16T21:50", "capacity": 200, "image": "music.jpeg"}, {"name": "Minh Tuan Nguyen", "location": "135 georgia ", "address": "3547 Drayton Manor Run", "paid": false, "cost": 0, "category": "food", "venue": "diamond", "time": "2024-10-17T17:02", "capacity": 1000, "image": "Event Finder_Group12F.jpg"}, {"name": "Minh Tuan Nguyen", "location": "dd", "address": "3547 Drayton Manor Run", "paid": false, "cost": 0, "category": "food", "venue": "food", "time": "2024-10-10T19:13", "capacity": 1000, "image": "music.jpeg"}, {"name": "Rock", "location": "dd", "address": "3142dasd", "paid": false, "cost": 0, "category": "music", "venue": "georgia", "time": "2024-09-30T18:44", "capacity": 20, "image": ""}, {"name": "Rock", "location": "dd", "address": "3142dasd", "paid": false, "cost": 0, "category": "music", "venue": "georgia", "time": "2024-09-30T18:44", "capacity": 20, "image": ""}]